places =[{"City":"New Orleans, LA","Latitude":29.953065,"Longitude":-90.069678,"Address":"700 Canal St. New Orleans, LA 70119 "},
{"City":"New York, NY","Latitude":40.73076,"Longitude":-74.00243,"Address":"239 Bleecker St, New York, NY 10014"},
{"City":"Chicago, IL","Latitude":41.879067,"Longitude":-87.630988,"Address":"105 W Adams St, Chicago, IL 60603"},
{"City":"Austin, TX","Latitude":30.268603,"Longitude":-97.743202,"Address":"600 Congress Ave. Ste. G-270 Austin, TX 78701"},
{"City":"Philadelphia, PA","Latitude":39.952163,"Longitude":-75.166189,"Address":"1500 Market St, Philadelphia, PA 19102"},
{"City":"Miami, FL","Latitude":25.765004,"Longitude":-80.193761,"Address":"901 South Miami Avenue 106 Miami, FL 33130"},
{"City":"Charlotte, NC","Latitude":35.226245,"Longitude":-80.842953,"Address":"101 S Tryon St, Charlotte, NC 28280"},
{"City":"Seattle, WA","Latitude":47.605708,"Longitude":-122.330206,"Address":"800 5th Ave, Seattle, WA 98104"},
{"City":"Nashville, TN","Latitude":36.163647,"Longitude":-86.780073,"Address":"424 Church St, Nashville, TN 37219"},
{"City":"Portland, OR","Latitude":45.522191,"Longitude":-122.676087,"Address":"555 SW Oak St, Portland, OR 97204"},
{"City":"Boston, MA","Latitude":42.359352,"Longitude":-71.059501,"Address":"63-65 Court St, Boston, MA 02108"},
{"City":"Kansas City, KS","Latitude":39.098427,"Longitude":-94.585402,"Address":"1301 Wyandotte St Kansas City, MO 64105"},
{"City":"Des Moines, IA","Latitude":41.599043,"Longitude":-93.623092,"Address":"1111 6th Ave, Des Moines, IA 50314"},
{"City":"Milwaukee, WI","Latitude":43.03843,"Longitude":-87.906986,"Address":"323 E Wisconsin Ave, Milwaukee, WI 53202"},
{"City":"Denver, CO","Latitude":39.742893,"Longitude":-104.988735,"Address":"303 16th St, Denver, CO 80202"},
{"City":"Tucson, AZ","Latitude":32.22213,"Longitude":-110.918345,"Address":"3421 E Broadway Blvd, Tucson, AZ 85716"},
{"City":"Atlanta, GA","Latitude":33.75685,"Longitude":-84.388599,"Address":"100 Peachtree St NW, Atlanta, GA 30303"},
{"City":"Long Beach, CA","Latitude":33.770159,"Longitude":-118.191942,"Address":"242 Pine Ave, Long Beach, CA 90802"},
{"City":"St. Louis, MO","Latitude":38.630891,"Longitude":-90.192523,"Address":"827 Washington Ave, St Louis, MO 63101"}]